{
    "places": [
      {
        "id": 0,
        "name": "ECR Beach",
        "latitude": 12.89473569817499, 
        "longitude": 80.25397799774997
      },
      {
        "id": 1,
        "name": "Kart Attack (GoKart)",
        "latitude": 12.896239644980932, 
        "longitude": 80.24584992505316
      },
      {
        "id": 2,
        "name": "Thoondil (Sea Food Restaurant)",
        "latitude": 12.889098594806098,  
        "longitude": 80.24595818557991
      },
      {
        "id": 3,
        "name": "Bowling Alley",
        "latitude": 12.910485958838075,   
        "longitude": 80.22823929352485
      },
      {
        "id": 4,
        "name": "Juicy pop",
        "latitude": 12.908011691835027,   
        "longitude": 80.2001413340113
      }
    ]
  }