{
    "places": [
      {
        "id": 0,
        "name": "Manuel Rossner - Yellow",
        "latitude": 50.14474,
        "longitude": 11.05938
      },
      {
        "id": 1,
        "name": "Nadine Kolodziey - Jump the Light",
        "latitude": 50.14578,
        "longitude": 11.06559
      },
      {
        "id": 2,
        "name": "kennedy+swan - BÃ†B",
        "latitude": 50.14596, 
        "longitude": 11.05995
      },
      {
        "id": 3,
        "name": "Pascal Sender - noch ohne Titel",
        "latitude": 50.14531,  
        "longitude": 11.06184
      },
      {
        "id": 4,
        "name": "Barbara Herold - Pool Party",
        "latitude": 50.14353,  
        "longitude": 11.08270
      },
      {
        "id": 4,
        "name": "Archiv der Zukunft",
        "latitude": 50.14353,  
        "longitude": 11.06310
      }
    ]
  }